{"bike_total": 298, "city": "austin", "dock_total": 294, "now": "Thu, 29 Jan 2015 03:40:02 GMT", "result_length": 45, "results": [{"bikes": 7, "city": "Austin", "docks": 6, "latitude": "30.26408", "longitude": "-97.74355", "name": "2nd & Congress", "state_zip": "TX 78701", "status": "active", "street": "151 E. 2nd St."}, {"bikes": 0, "city": "Austin", "docks": 13, "latitude": "30.26634", "longitude": "-97.74378", "name": "4th & Congress", "state_zip": "TX 78701", "status": "active", "street": "120 W. 4th St."}, {"bikes": 4, "city": "Austin", "docks": 9, "latitude": "30.26980", "longitude": "-97.74186", "name": "8th & Congress", "state_zip": "TX 78701", "status": "active", "street": "111 E. 8th St."}, {"bikes": 10, "city": "Austin", "docks": 8, "latitude": "30.27260", "longitude": "-97.74127", "name": "Capitol Station / Congress & 11th", "state_zip": "TX 78701", "status": "active", "street": "1090 Congress Ave."}, {"bikes": 16, "city": "Austin", "docks": 1, "latitude": "30.26483", "longitude": "-97.73900", "name": "Convention Center / 4th St. @ MetroRail", "state_zip": "TX 78701", "status": "active", "street": "499 E. 4th St."}, {"bikes": 13, "city": "Austin", "docks": 6, "latitude": "30.26476", "longitude": "-97.74678", "name": "City Hall / Lavaca & 2nd", "state_zip": "TX 78701", "status": "active", "street": "Presented by Graves Dougherty Hearon & Moody"}, {"bikes": 8, "city": "Austin", "docks": 5, "latitude": "30.26960", "longitude": "-97.75332", "name": "5th & Bowie", "state_zip": "TX 78703", "status": "active", "street": "Presented by Whole Foods Market"}, {"bikes": 8, "city": "Austin", "docks": 3, "latitude": "30.25870", "longitude": "-97.74872", "name": "Barton Springs & Riverside", "state_zip": "TX 78704", "status": "active", "street": "400 Barton Springs Rd."}, {"bikes": 6, "city": "Austin", "docks": 3, "latitude": "30.25103", "longitude": "-97.74926", "name": "South Congress & James", "state_zip": "TX 78704", "status": "active", "street": "Presented by The Austin Chronicle"}, {"bikes": 7, "city": "Austin", "docks": 6, "latitude": "30.24891", "longitude": "-97.75019", "name": "South Congress & Elizabeth", "state_zip": "TX 78704", "status": "active", "street": "101 Elizabeth St. W"}, {"bikes": 8, "city": "Austin", "docks": 5, "latitude": "30.26461", "longitude": "-97.73049", "name": "Waller & 6th St.", "state_zip": "TX 78702", "status": "active", "street": "602 Waller St."}, {"bikes": 6, "city": "Austin", "docks": 7, "latitude": "30.27041", "longitude": "-97.75046", "name": "West & 6th St.", "state_zip": "TX 78701", "status": "active", "street": "603 West Ave."}, {"bikes": 4, "city": "Austin", "docks": 10, "latitude": "30.28039", "longitude": "-97.73809", "name": "Bullock Museum @ Congress & MLK", "state_zip": "TX 78701", "status": "active", "street": "1881 Congress Ave."}, {"bikes": 6, "city": "Austin", "docks": 5, "latitude": "30.26426", "longitude": "-97.74023", "name": "Convention Center/ 3rd & Trinity", "state_zip": "TX 78701", "status": "active", "street": "212 Trinity Street"}, {"bikes": 5, "city": "Austin", "docks": 8, "latitude": "30.27974", "longitude": "-97.74254", "name": "17th & Guadalupe", "state_zip": "TX 78701", "status": "active", "street": "411 W. 17th St."}, {"bikes": 5, "city": "Austin", "docks": 8, "latitude": "30.27654", "longitude": "-97.74155", "name": "State Capitol @ 14th & Colorado", "state_zip": "TX 78701", "status": "active", "street": "206 W. 14th St."}, {"bikes": 11, "city": "Austin ", "docks": 1, "latitude": "30.26217", "longitude": "-97.72743", "name": "Plaza Saltillo", "state_zip": "TX 78702", "status": "active", "street": "1501 E. 5th St."}, {"bikes": 4, "city": "Austin", "docks": 9, "latitude": "30.28480", "longitude": "-97.72756", "name": "Red River @ LBJ Library", "state_zip": "TX 78705", "status": "active", "street": "2322 Red River"}, {"bikes": 3, "city": "Austin", "docks": 10, "latitude": "30.25895", "longitude": "-97.71475", "name": "East 6th & Pedernales St.", "state_zip": "TX 78702", "status": "active", "street": "2498 E. 6th St."}, {"bikes": 6, "city": "Austin", "docks": 8, "latitude": "30.27595", "longitude": "-97.74739", "name": "ACC - Rio Grande & 12th", "state_zip": "TX 78701", "status": "active", "street": "700 W. 12th St."}, {"bikes": 5, "city": "Austin", "docks": 8, "latitude": "30.27647", "longitude": "-97.74825", "name": "ACC - West & 12th", "state_zip": "TX 78701", "status": "active", "street": "1231 West Ave."}, {"bikes": 9, "city": "Austin", "docks": 4, "latitude": "30.28395", "longitude": "-97.74198", "name": "Guadalupe & 21st", "state_zip": "TX 78752", "status": "active", "street": "2100 Guadalupe St."}, {"bikes": 4, "city": "Austin", "docks": 9, "latitude": "30.28576", "longitude": "-97.74181", "name": "UT West Mall @ Guadalupe", "state_zip": "TX 78705", "status": "active", "street": "2242 Guadalupe St."}, {"bikes": 10, "city": "Austin", "docks": 3, "latitude": "30.25941", "longitude": "-97.74971", "name": "Long Center @ South 1st & Riverside", "state_zip": "TX 78704", "status": "active", "street": "390 S. 1st St."}, {"bikes": 6, "city": "Austin", "docks": 7, "latitude": "30.26774", "longitude": "-97.74692", "name": "Republic Square @ Guadalupe & 4th St.", "state_zip": "TX 78701", "status": "active", "street": "Presented by Austin Ventures"}, {"bikes": 8, "city": "Austin", "docks": 1, "latitude": "30.26791", "longitude": "-97.75156", "name": "3rd & West", "state_zip": "TX 78703", "status": "active", "street": "300 West Ave."}, {"bikes": 8, "city": "Austin", "docks": 5, "latitude": "30.27336", "longitude": "-97.73805", "name": "State Capitol Visitors Garage @ San Jacinto & 12th", "state_zip": "TX 78701", "status": "active", "street": "1201 San Jacinto Blvd."}, {"bikes": 1, "city": "Austin", "docks": 12, "latitude": "30.26912", "longitude": "-97.73986", "name": "San Jacinto & 8th Street", "state_zip": "TX 78701", "status": "active", "street": "782 San Jacinto Blvd."}, {"bikes": 8, "city": "Austin", "docks": 9, "latitude": "30.26019", "longitude": "-97.73845", "name": "Davis at Rainey Street", "state_zip": "TX 78701", "status": "active", "street": "698 Davis St."}, {"bikes": 4, "city": "Austin", "docks": 5, "latitude": "30.26416", "longitude": "-97.73289", "name": "5th & San Marcos", "state_zip": "TX 78702", "status": "active", "street": "991 E. 5th Street"}, {"bikes": 8, "city": "Austin", "docks": 3, "latitude": "30.26735", "longitude": "-97.73933", "name": "Trinity & 6th Street", "state_zip": "TX 78705", "status": "active", "street": "606 Trinity St."}, {"bikes": 5, "city": "Austin", "docks": 12, "latitude": "30.26717", "longitude": "-97.75484", "name": "Pfluger Bridge @ W 2nd Street", "state_zip": "TX 78703", "status": "active", "street": "700 block of W 2nd Street"}, {"bikes": 7, "city": "Austin", "docks": 6, "latitude": "30.25971", "longitude": "-97.75346", "name": "Palmer Auditorium", "state_zip": "TX 78704", "status": "active", "street": "900 Barton Springs Rd."}, {"bikes": 5, "city": "Austin", "docks": 8, "latitude": "30.26896", "longitude": "-97.72843", "name": "East 11th Street at Victory Grill", "state_zip": "TX 78702", "status": "active", "street": "1106 E. 11th St."}, {"bikes": 9, "city": "Austin", "docks": 4, "latitude": "30.26968", "longitude": "-97.73074", "name": "East 11th St. & San Marcos", "state_zip": "TX 78702", "status": "active", "street": "1001 E. 11th St."}, {"bikes": 6, "city": "Austin", "docks": 7, "latitude": "30.25226", "longitude": "-97.74854", "name": "South Congress & Academy", "state_zip": "TX 78704", "status": "active", "street": "1199 S. Congress Ave."}, {"bikes": 8, "city": "Austin", "docks": 5, "latitude": "30.26854", "longitude": "-97.73646", "name": "Red River & 8th Street", "state_zip": "TX 78701", "status": "active", "street": "761 Red River St."}, {"bikes": 4, "city": "Austin", "docks": 9, "latitude": "30.26452", "longitude": "-97.77120", "name": "Barton Springs Pool", "state_zip": "TX 78746", "status": "active", "street": "2200 William Barton Dr."}, {"bikes": 9, "city": "Austin", "docks": 4, "latitude": "30.26590", "longitude": "-97.76822", "name": "Zilker Park at Barton Springs & William Barton Drive", "state_zip": "TX 78746", "status": "active", "street": "2299 Barton Springs Rd"}, {"bikes": 7, "city": "Austin", "docks": 4, "latitude": "30.26446", "longitude": "-97.75665", "name": "Riverside @ S. Lamar", "state_zip": "TX 78704", "status": "active", "street": "1298 W. Riverside Dr."}, {"bikes": 6, "city": "Austin", "docks": 7, "latitude": "30.25579", "longitude": "-97.73982", "name": "Rainey St @ Cummings", "state_zip": "TX 78701", "status": "active", "street": "1 Rainey St"}, {"bikes": 5, "city": "Austin", "docks": 11, "latitude": "30.26200", "longitude": "-97.76118", "name": "Barton Springs @ Kinney Ave", "state_zip": "TX 78704", "status": "active", "street": "1530 Barton Springs Road"}, {"bikes": 7, "city": "Austin", "docks": 6, "latitude": "30.26304", "longitude": "-97.75824", "name": "Toomey Rd @ South Lamar", "state_zip": "TX 78704", "status": "active", "street": "1301 Toomey Road"}, {"bikes": 9, "city": "Austin", "docks": 4, "latitude": "30.26032", "longitude": "-97.71899", "name": "East 6th at Robert Martinez", "state_zip": "TX 78702", "status": "active", "street": "2120 East 6th St"}, {"bikes": 3, "city": "Austin", "docks": 10, "latitude": "30.25630", "longitude": "-97.71007", "name": "Capital Metro HQ - East 5th at Broadway", "state_zip": "TX 78702", "status": "active", "street": "2910 E 5th St"}]}